---------------------------------------
        Project Thetis Unit Test
                 REV F3
---------------------------------------
Initializing NeoPixel...done!
Testing NeoPixel...
Blinking error code...done
Rainbow...done
Pulsing...done
done!
---------------------------------------

Testing battery voltage monitoring...
Battery voltage: 0.000000 V
Battery voltage: 1.805416 V
Battery voltage: 1.805416 V
Battery voltage: 1.805416 V
Battery voltage: 1.805416 V
Battery voltage: 1.805416 V
Battery voltage: 1.805416 V
Battery voltage: 1.805416 V
Battery voltage: 1.805416 V
Battery voltage: 1.805416 V
Battery voltage: 1.805416 V
Battery voltage: 1.805416 V
Battery voltage: 1.805416 V
Battery voltage: 1.805416 V
Battery voltage: 1.805416 V
Battery voltage: 1.805416 V
Battery voltage: 1.805416 V
Battery voltage: 1.805416 V
Battery voltage: 1.805416 V
Battery voltage: 1.805416 V
done!
---------------------------------------

Initializing GPS...done!
Testing GPS...
,23,24,22,314,24,13,20,237,26*72
$GPGSV,3,3,12,15,10,268,23,03,05,088,,21,02,034,12,45,,,*40
Unknown sentence: $GPGSV,3,3,12,15,10,268,23,03,05,088,,21,02,034,12,45,,,*40

$GPRMC,213616.000,A,4035.8842,N,10505.4388,W,0.31,319.44,070322,,,A*72
$GPVTG,319.44,T,,M,0.31,N,0.58,K,A*39
Unknown sentence: $GPVTG,319.44,T,,M,0.31,N,0.58,K,A*39

Valid fix: yes
Nav. system: P
Num. satellites: 0
HDOP: 25.5
Date/time: 2022-3-7T21:36:16
Latitude (deg): 40.598070
Longitude (deg): -105.090646
Altitude (m): not available
Speed: 0.310
Course: 319.440
$GPGGA,213617.000,4035.8843,N,10505.4389,W,1,08,0.96,1525.9,M,-20.9,M,,*67
$GPGSA,A,3,14,19,01,17,30,15,13,24,,,,,1.25,0.96,0.80*0A
Unknown sentence: $GPGSA,A,3,14,19,01,17,30,15,13,24,,,,,1.25,0.96,0.80*0A

$GPRMC,213617.000,A,4035.8843,N,10505.4389,W,0.30,289.94,070322,,,A*77
$GPVTG,289.94,T,,M,0.30,N,0.55,K,A*30
Unknown sentence: $GPVTG,289.94,T,,M,0.30,N,0.55,K,A*30

Valid fix: yes
Nav. system: P
Num. satellites: 8
HDOP: 0.9
Date/time: 2022-3-7T21:36:17
Latitude (deg): 40.598071
Longitude (deg): -105.090648
Altitude (m): 1525.900
Speed: 0.300
Course: 289.940
$GPGGA,213618.000,4035.8843,N,10505.4390,W,1,08,0.96,1525.9,M,-20.9,M,,*60
$GPGSA,A,3,14,19,01,17,30,15,13,24,,,,,1.25,0.96,0.80*0A
Unknown sentence: $GPGSA,A,3,14,19,01,17,30,15,13,24,,,,,1.25,0.96,0.80*0A

$GPRMC,213618.000,A,4035.8843,N,10505.4390,W,0.22,289.72,070322,,,A*7B
$GPVTG,289.72,T,,M,0.22,N,0.41,K,A*3E
Unknown sentence: $GPVTG,289.72,T,,M,0.22,N,0.41,K,A*3E

Valid fix: yes
Nav. system: P
Num. satellites: 8
HDOP: 0.9
Date/time: 2022-3-7T21:36:18
Latitude (deg): 40.598071
Longitude (deg): -105.090650
Altitude (m): 1525.900
Speed: 0.220
Course: 289.720
$GPGGA,213619.000,4035.8843,N,10505.4391,W,1,08,0.96,1525.9,M,-20.9,M,,*60
$GPGSA,A,3,14,19,01,17,30,15,13,24,,,,,1.25,0.96,0.80*0A
Unknown sentence: $GPGSA,A,3,14,19,01,17,30,15,13,24,,,,,1.25,0.96,0.80*0A

$GPRMC,213619.000,A,4035.8843,N,10505.4391,W,0.10,345.74,070322,,,A*7D
$GPVTG,345.74,T,,M,0.10,N,0.18,K,A*34
Unknown sentence: $GPVTG,345.74,T,,M,0.10,N,0.18,K,A*34

Valid fix: yes
Nav. system: P
Num. satellites: 8
HDOP: 0.9
Date/time: 2022-3-7T21:36:19
Latitude (deg): 40.598071
Longitude (deg): -105.090651
Altitude (m): 1525.900
Speed: 0.100
Course: 345.740
$GPGGA,213620.000,4035.8843,N,10505.4391,W,1,08,0.99,1525.9,M,-20.9,M,,*65
$GPGSA,A,3,14,19,01,17,30,15,13,24,,,,,1.67,0.99,1.34*0D
Unknown sentence: $GPGSA,A,3,14,19,01,17,30,15,13,24,,,,,1.67,0.99,1.34*0D

$GPRMC,213620.000,A,4035.8843,N,10505.4391,W,0.14,34.63,070322,,,A*40
$GPVTG,34.63,T,,M,0.14,N,0.25,K,A*0D
Unknown sentence: $GPVTG,34.63,T,,M,0.14,N,0.25,K,A*0D

Valid fix: yes
Nav. system: P
Num. satellites: 8
HDOP: 0.9
Date/time: 2022-3-7T21:36:20
Latitude (deg): 40.598071
Longitude (deg): -105.090651
Altitude (m): 1525.900
Speed: 0.140
Course: 34.630
$GPGGA,213621.000,4035.8844,N,10505.4390,W,1,08,0.96,1525.9,M,-20.9,M,,*6D
$GPGSA,A,3,14,19,01,17,30,15,13,24,,,,,1.25,0.96,0.80*0A
Unknown sentence: $GPGSA,A,3,14,19,01,17,30,15,13,24,,,,,1.25,0.96,0.80*0A

$GPGSV,3,1,12,17,78,010,35,19,70,255,38,14,57,081,28,06,31,176,*70
Unknown sentence: $GPGSV,3,1,12,17,78,010,35,19,70,255,38,14,57,081,28,06,31,176                                                                                                             ,*70

$GPGSV,3,2,12,01,26,046,22,30,22,159,19,24,22,314,25,13,19,237,27*74
Unknown sentence: $GPGSV,3,2,12,01,26,046,22,30,22,159,19,24,22,314,25,13,19,237                                                                                                             ,27*74

$GPGSV,3,3,12,15,10,268,19,03,05,088,,21,02,034,14,46,,,*4C
Unknown sentence: $GPGSV,3,3,12,15,10,268,19,03,05,088,,21,02,034,14,46,,,*4C

$GPRMC,213621.000,A,4035.8844,N,10505.4390,W,0.09,70.72,070322,,,A*4B
$GPVTG,70.72,T,,M,0.09,N,0.16,K,A*01
Unknown sentence: $GPVTG,70.72,T,,M,0.09,N,0.16,K,A*01

Valid fix: yes
Nav. system: P
Num. satellites: 8
HDOP: 0.9
Date/time: 2022-3-7T21:36:21
Latitude (deg): 40.598073
Longitude (deg): -105.090650
Altitude (m): 1525.900
Speed: 0.090
Course: 70.720
$GPGGA,213622.000,4035.8844,N,10505.4390,W,1,08,0.96,1525.9,M,-20.9,M,,*6E
$GPGSA,A,3,14,19,01,17,30,15,13,24,,,,,1.25,0.96,0.80*0A
Unknown sentence: $GPGSA,A,3,14,19,01,17,30,15,13,24,,,,,1.25,0.96,0.80*0A

$GPRMC,213622.000,A,4035.8844,N,10505.4390,W,0.10,54.68,070322,,,A*4D
$GPVTG,54.68,T,,M,0.10,N,0.18,K,A*0A
Unknown sentence: $GPVTG,54.68,T,,M,0.10,N,0.18,K,A*0A

Valid fix: yes
Nav. system: P
Num. satellites: 8
HDOP: 0.9
Date/time: 2022-3-7T21:36:22
Latitude (deg): 40.598073
Longitude (deg): -105.090650
Altitude (m): 1525.900
Speed: 0.100
Course: 54.680
$GPGGA,213623.000,4035.8844,N,10505.4390,W,1,08,0.96,1525.9,M,-20.9,M,,*6F
$GPGSA,A,3,14,19,01,17,30,15,13,24,,,,,1.25,0.96,0.80*0A
Unknown sentence: $GPGSA,A,3,14,19,01,17,30,15,13,24,,,,,1.25,0.96,0.80*0A

$GPRMC,213623.000,A,4035.8844,N,10505.4390,W,0.08,129.74,070322,,,A*73
$GPVTG,129.74,T,,M,0.08,N,0.15,K,A*38
Unknown sentence: $GPVTG,129.74,T,,M,0.08,N,0.15,K,A*38

Valid fix: yes
Nav. system: P
Num. satellites: 8
HDOP: 0.9
Date/time: 2022-3-7T21:36:23
Latitude (deg): 40.598073
Longitude (deg): -105.090650
Altitude (m): 1525.900
Speed: 0.080
Course: 129.740
$GPGGA,213624.000,4035.8843,N,10505.4389,W,1,08,0.96,1525.9,M,-20.9,M,,*67
$GPGSA,A,3,14,19,01,17,30,15,13,24,,,,,1.25,0.96,0.80*0A
Unknown sentence: $GPGSA,A,3,14,19,01,17,30,15,13,24,,,,,1.25,0.96,0.80*0A

$GPRMC,213624.000,A,4035.8843,N,10505.4389,W,0.09,70.18,070322,,,A*4D
$GPVTG,70.18,T,,M,0.09,N,0.17,K,A*0C
Unknown sentence: $GPVTG,70.18,T,,M,0.09,N,0.17,K,A*0C

Valid fix: yes
Nav. system: P
Num. satellites: 8
HDOP: 0.9
Date/time: 2022-3-7T21:36:24
Latitude (deg): 40.598071
Longitude (deg): -105.090648
Altitude (m): 1525.900
Speed: 0.090
Course: 70.180
$GPGGA,213625.000,4035.8843,N,10505.4389,W,1,08,0.96,1525.9,M,-20.9,M,,*66
$GPGSA,A,3,14,19,01,17,30,15,13,24,,,,,1.25,0.96,0.80*0A
Unknown sentence: $GPGSA,A,3,14,19,01,17,30,15,13,24,,,,,1.25,0.96,0.80*0A

$GPRMC,213625.000,A,4035.8843,N,10505.4389,W,0.09,85.15,070322,,,A*4B
$GPVTG,85.15,T,,M,0.09,N,0.17,K,A*0B
Unknown sentence: $GPVTG,85.15,T,,M,0.09,N,0.17,K,A*0B

Valid fix: yes
Nav. system: P
Num. satellites: 8
HDOP: 0.9
Date/time: 2022-3-7T21:36:25
Latitude (deg): 40.598071
Longitude (deg): -105.090648
Altitude (m): 1525.900
Speed: 0.090
Course: 85.150
done!
---------------------------------------

Initializing IMU...done!
Testing IMU...
X: 0.00 Y: 0.00 Z: 0.00         qW: 0.0000 qX: 0.0000 qY: 0.0000 qZ: 0.0000             CALIBRATION: Sys=0 Gyro=3 Accel=1 Mag=1
X: 0.00 Y: 0.00 Z: 0.00         qW: 0.0000 qX: 0.0000 qY: 0.0000 qZ: 0.0000             CALIBRATION: Sys=0 Gyro=3 Accel=1 Mag=1
X: 0.00 Y: 0.00 Z: 0.00         qW: 0.0000 qX: 0.0000 qY: 0.0000 qZ: 0.0000             CALIBRATION: Sys=0 Gyro=3 Accel=1 Mag=1
X: 0.00 Y: 0.00 Z: 0.00         qW: 0.0000 qX: 0.0000 qY: 0.0000 qZ: 0.0000             CALIBRATION: Sys=0 Gyro=3 Accel=1 Mag=1
X: 0.00 Y: 0.00 Z: 0.00         qW: 0.0000 qX: 0.0000 qY: 0.0000 qZ: 0.0000             CALIBRATION: Sys=0 Gyro=3 Accel=1 Mag=1
X: 0.00 Y: 0.00 Z: 0.00         qW: 0.0000 qX: 0.0000 qY: 0.0000 qZ: 0.0000             CALIBRATION: Sys=0 Gyro=3 Accel=1 Mag=1
X: 0.00 Y: 0.00 Z: 0.00         qW: 0.0000 qX: 0.0000 qY: 0.0000 qZ: 0.0000             CALIBRATION: Sys=0 Gyro=3 Accel=1 Mag=1
X: 0.00 Y: 0.00 Z: 0.00         qW: 0.0000 qX: 0.0000 qY: 0.0000 qZ: 0.0000             CALIBRATION: Sys=0 Gyro=3 Accel=1 Mag=1
X: 0.00 Y: 0.00 Z: 0.00         qW: 0.0000 qX: 0.0000 qY: 0.0000 qZ: 0.0000             CALIBRATION: Sys=0 Gyro=3 Accel=1 Mag=1
X: 0.00 Y: 0.00 Z: 0.00         qW: 0.0000 qX: 0.0000 qY: 0.0000 qZ: 0.0000             CALIBRATION: Sys=0 Gyro=3 Accel=1 Mag=1
X: 0.00 Y: 0.00 Z: 0.00         qW: 0.0000 qX: 0.0000 qY: 0.0000 qZ: 0.0000             CALIBRATION: Sys=0 Gyro=3 Accel=1 Mag=1
X: 0.00 Y: 0.00 Z: 0.00         qW: 0.0000 qX: 0.0000 qY: 0.0000 qZ: 0.0000             CALIBRATION: Sys=0 Gyro=3 Accel=1 Mag=1
X: 0.00 Y: 0.00 Z: 0.00         qW: 0.0000 qX: 0.0000 qY: 0.0000 qZ: 0.0000             CALIBRATION: Sys=0 Gyro=3 Accel=1 Mag=1
X: 0.00 Y: 0.00 Z: 0.00         qW: 0.0000 qX: 0.0000 qY: 0.0000 qZ: 0.0000             CALIBRATION: Sys=0 Gyro=3 Accel=1 Mag=1
X: 0.00 Y: 0.00 Z: 0.00         qW: 0.0000 qX: 0.0000 qY: 0.0000 qZ: 0.0000             CALIBRATION: Sys=0 Gyro=3 Accel=1 Mag=1
X: 0.00 Y: 0.00 Z: 0.00         qW: 0.0000 qX: 0.0000 qY: 0.0000 qZ: 0.0000             CALIBRATION: Sys=0 Gyro=3 Accel=1 Mag=1
X: 0.00 Y: 0.00 Z: 0.00         qW: 0.0000 qX: 0.0000 qY: 0.0000 qZ: 0.0000             CALIBRATION: Sys=0 Gyro=3 Accel=1 Mag=1
X: 0.00 Y: 0.00 Z: 0.00         qW: 0.0000 qX: 0.0000 qY: 0.0000 qZ: 0.0000             CALIBRATION: Sys=0 Gyro=3 Accel=1 Mag=1
X: 0.00 Y: 0.00 Z: 0.00         qW: 0.0000 qX: 0.0000 qY: 0.0000 qZ: 0.0000             CALIBRATION: Sys=0 Gyro=3 Accel=1 Mag=1
X: 0.00 Y: 0.00 Z: 0.00         qW: 0.0000 qX: 0.0000 qY: 0.0000 qZ: 0.0000             CALIBRATION: Sys=0 Gyro=3 Accel=1 Mag=1
X: 0.00 Y: 0.00 Z: 0.00         qW: 0.0000 qX: 0.0000 qY: 0.0000 qZ: 0.0000             CALIBRATION: Sys=0 Gyro=3 Accel=1 Mag=1
X: 0.00 Y: 0.00 Z: 0.00         qW: 0.0000 qX: 0.0000 qY: 0.0000 qZ: 0.0000             CALIBRATION: Sys=0 Gyro=3 Accel=1 Mag=1
X: 0.00 Y: 0.00 Z: 0.00         qW: 0.0000 qX: 0.0000 qY: 0.0000 qZ: 0.0000             CALIBRATION: Sys=0 Gyro=3 Accel=1 Mag=1
X: 0.00 Y: 0.00 Z: 0.00         qW: 0.0000 qX: 0.0000 qY: 0.0000 qZ: 0.0000             CALIBRATION: Sys=0 Gyro=3 Accel=1 Mag=1
X: 0.00 Y: 0.00 Z: 0.00         qW: 0.0000 qX: 0.0000 qY: 0.0000 qZ: 0.0000             CALIBRATION: Sys=0 Gyro=3 Accel=1 Mag=1
X: 0.00 Y: 0.00 Z: 0.00         qW: 0.0000 qX: 0.0000 qY: 0.0000 qZ: 0.0000             CALIBRATION: Sys=0 Gyro=3 Accel=1 Mag=1
X: 0.00 Y: 0.00 Z: 0.00         qW: 0.0000 qX: 0.0000 qY: 0.0000 qZ: 0.0000             CALIBRATION: Sys=0 Gyro=3 Accel=1 Mag=1
X: 0.00 Y: 0.00 Z: 0.00         qW: 0.0000 qX: 0.0000 qY: 0.0000 qZ: 0.0000             CALIBRATION: Sys=0 Gyro=3 Accel=1 Mag=1
X: 0.00 Y: 0.00 Z: 0.00         qW: 0.0000 qX: 0.0000 qY: 0.0000 qZ: 0.0000             CALIBRATION: Sys=0 Gyro=3 Accel=1 Mag=1
X: 0.00 Y: 0.00 Z: 0.00         qW: 0.0000 qX: 0.0000 qY: 0.0000 qZ: 0.0000             CALIBRATION: Sys=0 Gyro=3 Accel=1 Mag=1
X: 0.00 Y: 0.00 Z: 0.00         qW: 0.0000 qX: 0.0000 qY: 0.0000 qZ: 0.0000             CALIBRATION: Sys=0 Gyro=3 Accel=1 Mag=1
X: 0.00 Y: 0.00 Z: 0.00         qW: 0.0000 qX: 0.0000 qY: 0.0000 qZ: 0.0000             CALIBRATION: Sys=0 Gyro=3 Accel=1 Mag=1
X: 0.00 Y: 0.00 Z: 0.00         qW: 0.0000 qX: 0.0000 qY: 0.0000 qZ: 0.0000             CALIBRATION: Sys=0 Gyro=3 Accel=1 Mag=1
X: 0.00 Y: 0.00 Z: 0.00         qW: 0.0000 qX: 0.0000 qY: 0.0000 qZ: 0.0000             CALIBRATION: Sys=0 Gyro=3 Accel=1 Mag=1
X: 0.00 Y: 0.00 Z: 0.00         qW: 0.0000 qX: 0.0000 qY: 0.0000 qZ: 0.0000             CALIBRATION: Sys=0 Gyro=3 Accel=1 Mag=1
X: 0.00 Y: 0.00 Z: 0.00         qW: 0.0000 qX: 0.0000 qY: 0.0000 qZ: 0.0000             CALIBRATION: Sys=0 Gyro=3 Accel=1 Mag=1
X: 0.00 Y: 0.00 Z: 0.00         qW: 0.0000 qX: 0.0000 qY: 0.0000 qZ: 0.0000             CALIBRATION: Sys=0 Gyro=3 Accel=1 Mag=1
X: 0.00 Y: 0.00 Z: 0.00         qW: 0.0000 qX: 0.0000 qY: 0.0000 qZ: 0.0000             CALIBRATION: Sys=0 Gyro=3 Accel=1 Mag=1
X: 0.00 Y: 0.00 Z: 0.00         qW: 0.0000 qX: 0.0000 qY: 0.0000 qZ: 0.0000             CALIBRATION: Sys=0 Gyro=3 Accel=1 Mag=1
X: 0.00 Y: 0.00 Z: 0.00         qW: 0.0000 qX: 0.0000 qY: 0.0000 qZ: 0.0000             CALIBRATION: Sys=0 Gyro=3 Accel=1 Mag=1
X: 0.00 Y: 0.00 Z: 0.00         qW: 0.0000 qX: 0.0000 qY: 0.0000 qZ: 0.0000             CALIBRATION: Sys=0 Gyro=3 Accel=1 Mag=1
X: 0.00 Y: 0.00 Z: 0.00         qW: 0.0000 qX: 0.0000 qY: 0.0000 qZ: 0.0000             CALIBRATION: Sys=0 Gyro=3 Accel=1 Mag=1
X: 0.00 Y: 0.00 Z: 0.00         qW: 0.0000 qX: 0.0000 qY: 0.0000 qZ: 0.0000             CALIBRATION: Sys=0 Gyro=3 Accel=1 Mag=1
X: 0.00 Y: 0.00 Z: 0.00         qW: 0.0000 qX: 0.0000 qY: 0.0000 qZ: 0.0000             CALIBRATION: Sys=0 Gyro=3 Accel=1 Mag=1
X: 0.00 Y: 0.00 Z: 0.00         qW: 0.0000 qX: 0.0000 qY: 0.0000 qZ: 0.0000             CALIBRATION: Sys=0 Gyro=3 Accel=1 Mag=1
X: 0.00 Y: 0.00 Z: 0.00         qW: 0.0000 qX: 0.0000 qY: 0.0000 qZ: 0.0000             CALIBRATION: Sys=0 Gyro=3 Accel=1 Mag=1
X: 0.00 Y: 0.00 Z: 0.00         qW: 0.0000 qX: 0.0000 qY: 0.0000 qZ: 0.0000             CALIBRATION: Sys=0 Gyro=3 Accel=1 Mag=1
X: 0.00 Y: 0.00 Z: 0.00         qW: 0.0000 qX: 0.0000 qY: 0.0000 qZ: 0.0000             CALIBRATION: Sys=0 Gyro=3 Accel=1 Mag=1
X: 0.00 Y: 0.00 Z: 0.00         qW: 0.0000 qX: 0.0000 qY: 0.0000 qZ: 0.0000             CALIBRATION: Sys=0 Gyro=3 Accel=1 Mag=1
X: 0.00 Y: 0.00 Z: 0.00         qW: 0.0000 qX: 0.0000 qY: 0.0000 qZ: 0.0000             CALIBRATION: Sys=0 Gyro=3 Accel=1 Mag=1
X: 0.00 Y: 0.00 Z: 0.00         qW: 0.0000 qX: 0.0000 qY: 0.0000 qZ: 0.0000             CALIBRATION: Sys=0 Gyro=3 Accel=1 Mag=1
X: 0.00 Y: 0.00 Z: 0.00         qW: 0.0000 qX: 0.0000 qY: 0.0000 qZ: 0.0000             CALIBRATION: Sys=0 Gyro=3 Accel=1 Mag=1
X: 0.00 Y: 0.00 Z: 0.00         qW: 0.0000 qX: 0.0000 qY: 0.0000 qZ: 0.0000             CALIBRATION: Sys=0 Gyro=3 Accel=1 Mag=1
X: 0.00 Y: 0.00 Z: 0.00         qW: 0.0000 qX: 0.0000 qY: 0.0000 qZ: 0.0000             CALIBRATION: Sys=0 Gyro=3 Accel=1 Mag=1
X: 0.00 Y: 0.00 Z: 0.00         qW: 0.0000 qX: 0.0000 qY: 0.0000 qZ: 0.0000             CALIBRATION: Sys=0 Gyro=3 Accel=1 Mag=1
X: 0.00 Y: 0.00 Z: 0.00         qW: 0.0000 qX: 0.0000 qY: 0.0000 qZ: 0.0000             CALIBRATION: Sys=0 Gyro=3 Accel=1 Mag=1
X: 0.00 Y: 0.00 Z: 0.00         qW: 0.0000 qX: 0.0000 qY: 0.0000 qZ: 0.0000             CALIBRATION: Sys=0 Gyro=3 Accel=1 Mag=1
X: 0.00 Y: 0.00 Z: 0.00         qW: 0.0000 qX: 0.0000 qY: 0.0000 qZ: 0.0000             CALIBRATION: Sys=0 Gyro=3 Accel=1 Mag=1
X: 0.00 Y: 0.00 Z: 0.00         qW: 0.0000 qX: 0.0000 qY: 0.0000 qZ: 0.0000             CALIBRATION: Sys=0 Gyro=3 Accel=1 Mag=1
X: 0.00 Y: 0.00 Z: 0.00         qW: 0.0000 qX: 0.0000 qY: 0.0000 qZ: 0.0000             CALIBRATION: Sys=0 Gyro=3 Accel=1 Mag=1
X: 0.00 Y: 0.00 Z: 0.00         qW: 0.0000 qX: 0.0000 qY: 0.0000 qZ: 0.0000             CALIBRATION: Sys=0 Gyro=3 Accel=1 Mag=1
X: 0.00 Y: 0.00 Z: 0.00         qW: 0.0000 qX: 0.0000 qY: 0.0000 qZ: 0.0000             CALIBRATION: Sys=0 Gyro=3 Accel=1 Mag=1
X: 0.00 Y: 0.00 Z: 0.00         qW: 0.0000 qX: 0.0000 qY: 0.0000 qZ: 0.0000             CALIBRATION: Sys=0 Gyro=3 Accel=1 Mag=1
X: 0.00 Y: 0.00 Z: 0.00         qW: 0.0000 qX: 0.0000 qY: 0.0000 qZ: 0.0000             CALIBRATION: Sys=0 Gyro=3 Accel=1 Mag=1
X: 0.00 Y: 0.00 Z: 0.00         qW: 0.0000 qX: 0.0000 qY: 0.0000 qZ: 0.0000             CALIBRATION: Sys=0 Gyro=3 Accel=1 Mag=1
X: 0.00 Y: 0.00 Z: 0.00         qW: 0.0000 qX: 0.0000 qY: 0.0000 qZ: 0.0000             CALIBRATION: Sys=0 Gyro=3 Accel=1 Mag=1
X: 0.00 Y: 0.00 Z: 0.00         qW: 0.0000 qX: 0.0000 qY: 0.0000 qZ: 0.0000             CALIBRATION: Sys=0 Gyro=3 Accel=1 Mag=1
X: 0.00 Y: 0.00 Z: 0.00         qW: 0.0000 qX: 0.0000 qY: 0.0000 qZ: 0.0000             CALIBRATION: Sys=0 Gyro=3 Accel=1 Mag=1
X: 0.00 Y: 0.00 Z: 0.00         qW: 0.0000 qX: 0.0000 qY: 0.0000 qZ: 0.0000             CALIBRATION: Sys=0 Gyro=3 Accel=1 Mag=1
X: 0.00 Y: 0.00 Z: 0.00         qW: 0.0000 qX: 0.0000 qY: 0.0000 qZ: 0.0000             CALIBRATION: Sys=0 Gyro=3 Accel=1 Mag=1
X: 0.00 Y: 0.00 Z: 0.00         qW: 0.0000 qX: 0.0000 qY: 0.0000 qZ: 0.0000             CALIBRATION: Sys=0 Gyro=3 Accel=1 Mag=1
X: 0.00 Y: 0.00 Z: 0.00         qW: 0.0000 qX: 0.0000 qY: 0.0000 qZ: 0.0000             CALIBRATION: Sys=0 Gyro=3 Accel=1 Mag=1
X: 0.00 Y: 0.00 Z: 0.00         qW: 0.0000 qX: 0.0000 qY: 0.0000 qZ: 0.0000             CALIBRATION: Sys=0 Gyro=3 Accel=1 Mag=1
X: 0.00 Y: 0.00 Z: 0.00         qW: 0.0000 qX: 0.0000 qY: 0.0000 qZ: 0.0000             CALIBRATION: Sys=0 Gyro=3 Accel=1 Mag=1
X: 0.00 Y: 0.00 Z: 0.00         qW: 0.0000 qX: 0.0000 qY: 0.0000 qZ: 0.0000             CALIBRATION: Sys=0 Gyro=3 Accel=1 Mag=1
X: 0.00 Y: 0.00 Z: 0.00         qW: 0.0000 qX: 0.0000 qY: 0.0000 qZ: 0.0000             CALIBRATION: Sys=0 Gyro=3 Accel=1 Mag=1
X: 0.00 Y: 0.00 Z: 0.00         qW: 0.0000 qX: 0.0000 qY: 0.0000 qZ: 0.0000             CALIBRATION: Sys=0 Gyro=3 Accel=1 Mag=1
X: 0.00 Y: 0.00 Z: 0.00         qW: 0.0000 qX: 0.0000 qY: 0.0000 qZ: 0.0000             CALIBRATION: Sys=0 Gyro=3 Accel=1 Mag=1
X: 0.00 Y: 0.00 Z: 0.00         qW: 0.0000 qX: 0.0000 qY: 0.0000 qZ: 0.0000             CALIBRATION: Sys=0 Gyro=3 Accel=1 Mag=1
X: 0.00 Y: 0.00 Z: 0.00         qW: 0.0000 qX: 0.0000 qY: 0.0000 qZ: 0.0000             CALIBRATION: Sys=0 Gyro=3 Accel=1 Mag=1
X: 0.00 Y: 0.00 Z: 0.00         qW: 0.0000 qX: 0.0000 qY: 0.0000 qZ: 0.0000             CALIBRATION: Sys=0 Gyro=3 Accel=1 Mag=1
X: 0.00 Y: 0.00 Z: 0.00         qW: 0.0000 qX: 0.0000 qY: 0.0000 qZ: 0.0000             CALIBRATION: Sys=0 Gyro=3 Accel=1 Mag=1
X: 0.00 Y: 0.00 Z: 0.00         qW: 0.0000 qX: 0.0000 qY: 0.0000 qZ: 0.0000             CALIBRATION: Sys=0 Gyro=3 Accel=1 Mag=1
X: 0.00 Y: 0.00 Z: 0.00         qW: 0.0000 qX: 0.0000 qY: 0.0000 qZ: 0.0000             CALIBRATION: Sys=0 Gyro=3 Accel=1 Mag=1
X: 0.00 Y: 0.00 Z: 0.00         qW: 0.0000 qX: 0.0000 qY: 0.0000 qZ: 0.0000             CALIBRATION: Sys=0 Gyro=3 Accel=1 Mag=1
X: 0.00 Y: 0.00 Z: 0.00         qW: 0.0000 qX: 0.0000 qY: 0.0000 qZ: 0.0000             CALIBRATION: Sys=0 Gyro=3 Accel=1 Mag=1
X: 0.00 Y: 0.00 Z: 0.00         qW: 0.0000 qX: 0.0000 qY: 0.0000 qZ: 0.0000             CALIBRATION: Sys=0 Gyro=3 Accel=1 Mag=1
X: 0.00 Y: 0.00 Z: 0.00         qW: 0.0000 qX: 0.0000 qY: 0.0000 qZ: 0.0000             CALIBRATION: Sys=0 Gyro=3 Accel=1 Mag=1
X: 0.00 Y: 0.00 Z: 0.00         qW: 0.0000 qX: 0.0000 qY: 0.0000 qZ: 0.0000             CALIBRATION: Sys=0 Gyro=3 Accel=1 Mag=1
X: 0.00 Y: 0.00 Z: 0.00         qW: 0.0000 qX: 0.0000 qY: 0.0000 qZ: 0.0000             CALIBRATION: Sys=0 Gyro=3 Accel=1 Mag=1
X: 0.00 Y: 0.00 Z: 0.00         qW: 0.0000 qX: 0.0000 qY: 0.0000 qZ: 0.0000             CALIBRATION: Sys=0 Gyro=3 Accel=1 Mag=1
X: 0.00 Y: 0.00 Z: 0.00         qW: 0.0000 qX: 0.0000 qY: 0.0000 qZ: 0.0000             CALIBRATION: Sys=0 Gyro=3 Accel=1 Mag=1
X: 0.00 Y: 0.00 Z: 0.00         qW: 0.0000 qX: 0.0000 qY: 0.0000 qZ: 0.0000             CALIBRATION: Sys=0 Gyro=3 Accel=1 Mag=1
done!
---------------------------------------

Initializing XTSD card...done!
Testing XTSD Card...
SD Card Size: 990MB
Listing directory: /
  FILE: test.txt  SIZE: 1048576
  FILE: foo.txt  SIZE: 14
Creating Dir: /mydir
Dir created
Listing directory: /
  FILE: test.txt  SIZE: 1048576
  FILE: foo.txt  SIZE: 14
  DIR : mydir
Removing Dir: /mydir
Dir removed
Listing directory: /
  FILE: test.txt  SIZE: 1048576
  FILE: foo.txt  SIZE: 14
Writing file: /hello.txt
File written
Appending to file: /hello.txt
Message appended
Read from file: Hello World!
Deleting file: /foo.txt
File deleted
Renaming file /hello.txt to /foo.txt
File renamed
Read from file: Hello World!
1048576 bytes read for 206848 ms
1048576 bytes written for 207724 ms
Total space: 989MB
Used space: 1MB
done!
---------------------------------------

Unit test complete
